[{"nom_de_la_commune":"VILLE DU PONT","code_commune_insee":"25620","coordinates":[6.498147193,46.999873398]},{"nom_de_la_commune":"VILLERS GRELOT","code_commune_insee":"25624","coordinates":[6.235167025,47.361512085]},{"nom_de_la_commune":"SOLAURE EN DIOIS","code_commune_insee":"26001","coordinates":[5.387770455,44.70587354]},{"nom_de_la_commune":"ALEYRAC","code_commune_insee":"26003","coordinates":[4.946083614,44.499150841]},{"nom_de_la_commune":"ANDANCETTE","code_commune_insee":"26009","coordinates":[4.812717032,45.246625023]},{"nom_de_la_commune":"AOUSTE SUR SYE","code_commune_insee":"26011","coordinates":[5.057320177,44.706856708]},{"nom_de_la_commune":"ARPAVON","code_commune_insee":"26013","coordinates":[5.273184253,44.371127022]},{"nom_de_la_commune":"AUTICHAMP","code_commune_insee":"26021","coordinates":[4.972677118,44.683240066]},{"nom_de_la_commune":"BARCELONNE","code_commune_insee":"26024","coordinates":[5.054652574,44.867074421]},{"nom_de_la_commune":"BARRET DE LIOURE","code_commune_insee":"26026","coordinates":[5.516253783,44.175483103]},{"nom_de_la_commune":"BARSAC","code_commune_insee":"26027","coordinates":[5.304155411,44.726373096]},{"nom_de_la_commune":"BATHERNAY","code_commune_insee":"26028","coordinates":[4.998168321,45.183429046]}]